City_ID,City,Lat,Lng,Max Temp,Humidity,Cloudiness,Wind Speed,Country,Date
0,el calafate,-50.3408,-72.2768,5.33,77,3,2.87,AR,1696295705
1,grand falls-windsor,48.9332,-55.6649,10.28,74,23,1.91,CA,1696295705
2,bubaque,11.2833,-15.8333,28.05,81,99,2.78,GW,1696295705
3,baruun-urt,46.6806,113.2792,7.05,45,35,4.99,MN,1696295705
4,fortuna,40.5982,-124.1573,16.19,79,0,5.66,US,1696295559
5,west island,-12.1568,96.8225,24.99,69,100,6.69,CC,1696295570
6,kone,-21.0595,164.8658,25.99,53,94,4.25,NC,1696295579
7,waitangi,-43.9535,-176.5597,8.23,93,100,7.15,NZ,1696295557
8,constantia,44.1833,28.65,13.38,54,0,4.93,RO,1696295598
9,dudinka,69.4058,86.1778,0.9,96,100,10.28,RU,1696295563
10,vorgashor,67.5833,63.95,0.99,82,100,7.97,RU,1696295571
11,iqaluit,63.7506,-68.5145,2.85,86,100,5.14,CA,1696295461
12,levuka,50.1834,-105.4011,12.9,53,100,1.49,CA,1696295706
13,walvis bay,-22.9575,14.5053,12.83,76,6,3.24,NA,1696295572
14,ilulissat,69.2167,-51.1,-1.99,37,0,7.72,GL,1696295564
15,ribeira grande,38.5167,-28.7,17.65,79,0,4.47,PT,1696295566
16,isafjordur,66.0755,-23.124,1.29,94,100,7.41,IS,1696295572
17,adamstown,-25.066,-130.1015,20.41,73,4,9.74,PN,1696295561
18,lihue,21.9789,-159.3672,28.58,72,0,4.63,US,1696295556
19,port-aux-francais,-49.35,70.2167,2.23,74,82,15.38,TF,1696295559
20,atafu village,-8.5421,-172.5159,28.73,74,13,4.18,TK,1696295572
21,edinburgh of the seven seas,-37.0676,-12.3116,10.03,58,75,10.0,SH,1696295559
22,grytviken,-54.2811,-36.5092,1.52,65,99,4.87,GS,1696295558
23,hollins,37.3413,-79.9431,21.08,87,27,0.4,US,1696295706
24,puerto natales,-51.7236,-72.4875,2.83,96,100,1.78,CL,1696295566
25,susuman,62.7833,148.1667,-1.68,82,6,1.34,RU,1696295564
26,codrington,-38.2667,141.9667,16.84,55,93,6.32,AU,1696295583
27,severo-yeniseyskiy,60.3725,93.0408,0.32,98,100,2.68,RU,1696295706
28,bilibino,68.0546,166.4372,-8.36,92,99,0.88,RU,1696295559
29,port mathurin,-19.6833,63.4167,23.53,80,15,7.07,MU,1696295561
30,port elizabeth,-33.918,25.5701,14.16,88,0,2.57,ZA,1696295559
31,cabo san lucas,22.8909,-109.9124,31.61,72,20,7.72,MX,1696295473
32,karratha,-20.7377,116.8463,28.86,26,79,7.25,AU,1696295572
33,amboasary,-25.0333,46.3833,18.04,66,62,5.2,MG,1696295706
34,bredasdorp,-34.5322,20.0403,12.46,85,0,2.1,ZA,1696295564
35,mount pearl,47.5166,-52.7813,9.48,95,75,1.54,CA,1696295579
36,talnakh,69.4865,88.3972,0.67,96,100,7.51,RU,1696295586
37,trinity beach,-16.7888,145.6968,30.01,63,100,4.63,AU,1696295707
38,avarua,-21.2078,-159.775,23.03,64,75,4.12,CK,1696295559
39,jamestown,42.097,-79.2353,18.8,87,0,1.54,US,1696295537
40,jijiga,9.35,42.8,18.29,64,81,1.43,ET,1696295707
41,neya,58.2972,43.8681,8.59,93,100,1.85,RU,1696295707
42,khandyga,62.6667,135.6,6.64,82,100,0.78,RU,1696295569
43,cadale,2.7603,46.3222,26.07,87,1,4.93,SO,1696295611
44,ibresi,55.2961,47.0394,11.31,87,100,1.08,RU,1696295707
45,nemuro,43.3236,145.575,15.83,67,6,10.62,JP,1696295600
46,hadibu,12.65,54.0333,26.46,84,23,2.26,YE,1696295600
47,kresttsy,58.2452,32.5165,8.23,87,98,2.49,RU,1696295707
48,gorom-gorom,14.4439,-0.2361,32.74,36,100,4.19,BF,1696295707
49,hirara,24.8,125.2833,30.15,84,75,6.17,JP,1696295578
50,maragogi,-9.0122,-35.2225,23.76,80,14,2.92,BR,1696295707
51,tiksi,71.6872,128.8694,-2.32,80,95,7.75,RU,1696295561
52,puerto ayora,-0.7393,-90.3518,23.08,97,73,3.13,EC,1696295561
53,pokachi,61.7198,75.3683,8.42,89,81,6.49,RU,1696295707
54,nova vicosa,-17.8919,-39.3719,24.53,90,100,5.36,BR,1696295707
55,kuandian,40.7286,124.7847,17.16,67,100,2.35,CN,1696295708
56,blackmans bay,-43.0167,147.3167,20.07,65,44,4.74,AU,1696295561
57,kilindoni,-7.9139,39.6668,25.07,80,91,6.3,TZ,1696295708
58,longyearbyen,78.2186,15.6401,-3.09,68,75,6.69,SJ,1696295570
59,dunedin,-45.8742,170.5036,12.11,53,5,2.68,NZ,1696295558
60,alesund,62.4723,6.1549,13.2,83,100,5.66,NO,1696295556
61,anadyr,64.75,177.4833,4.28,64,0,7.0,RU,1696295576
62,bethel,41.3712,-73.414,17.31,85,0,0.0,US,1696295345
63,taltal,-25.4,-70.4833,16.2,78,8,2.4,CL,1696295593
64,aykhal,66.0,111.5,-7.74,91,95,3.13,RU,1696295451
65,mar del plata,-38.0023,-57.5575,10.61,98,100,2.57,AR,1696295708
66,ta`u,-14.2336,-169.5144,26.76,81,44,9.56,AS,1696295580
67,san patricio,28.017,-97.5169,29.35,81,0,6.08,US,1696295608
68,albany,42.6001,-73.9662,16.07,86,24,0.89,US,1696295479
69,luau,-10.7073,22.2247,22.35,47,93,1.25,AO,1696295708
70,rongelap,11.1635,166.8941,29.16,77,72,7.58,MH,1696295566
71,port alfred,-33.5906,26.891,20.23,54,0,2.78,ZA,1696295584
72,college,64.8569,-147.8028,5.25,68,75,5.66,US,1696295422
73,kerch,45.3583,36.4758,17.53,61,0,8.94,UA,1696295708
74,georgetown,5.4112,100.3354,27.75,83,20,1.03,MY,1696295558
75,keflavik,64.0049,-22.5624,6.24,75,75,6.69,IS,1696295563
76,ushuaia,-54.8,-68.3,3.04,98,100,2.4,AR,1696295561
77,brokopondo,4.75,-55.1667,28.2,72,13,4.58,SR,1696295578
78,esquel,-42.9,-71.3167,4.74,88,100,2.57,AR,1696295584
79,kattivakkam,13.2167,80.3167,28.05,84,88,5.23,IN,1696295708
80,luderitz,-26.6481,15.1594,16.63,71,0,3.26,NA,1696295575
81,al mindak,20.1588,41.2834,20.78,19,1,3.46,SA,1696295708
82,colonia,50.9333,6.95,21.9,77,0,2.06,DE,1696295599
83,tianfu,37.1936,122.0511,19.48,48,99,2.27,CN,1696295708
84,malpica,43.3228,-8.8105,19.63,72,100,2.33,ES,1696295709
85,praia da vitoria,38.7333,-27.0667,19.14,77,20,5.6,PT,1696295604
86,eilat,29.5581,34.9482,25.91,61,100,8.23,IL,1696295709
87,neyriz,29.1988,54.3278,19.79,22,0,0.82,IR,1696295709
88,mosjoen,65.836,13.1908,7.29,100,100,1.03,NO,1696295575
89,holualoa,19.6228,-155.9522,25.99,78,40,3.6,US,1696295388
90,hamilton,39.1834,-84.5333,23.55,73,0,0.89,US,1696295709
91,sinabang,2.4803,96.3801,26.77,77,97,4.91,ID,1696295573
92,san matias,-16.3667,-58.4,30.76,40,52,2.46,BO,1696295477
93,petropavlovsk-kamchatsky,53.0452,158.6483,8.03,87,75,7.0,RU,1696295569
94,raduzhny,62.0961,77.475,7.75,90,100,5.81,RU,1696295709
95,poxoreo,-15.8372,-54.3892,27.39,59,52,1.75,BR,1696295709
96,olonkinbyen,70.9221,-8.7187,2.97,84,79,7.29,SJ,1696295572
97,dange,12.8513,5.3471,24.39,81,100,6.09,NG,1696295709
98,manay,7.215,126.5397,29.48,73,19,2.04,PH,1696295709
99,cabedelo,-6.9811,-34.8339,24.37,76,39,4.56,BR,1696295401
100,beira,-19.8436,34.8389,23.05,64,40,5.14,MZ,1696295709
101,yellowknife,62.456,-114.3525,9.67,96,75,1.54,CA,1696295557
102,alice springs,-23.7,133.8833,32.75,17,40,8.75,AU,1696295559
103,udachny,66.4167,112.4,-4.75,79,76,3.1,RU,1696295561
104,barra dos coqueiros,-10.9089,-37.0386,26.01,73,20,5.14,BR,1696295710
105,crane,31.3974,-102.3501,26.84,55,72,12.16,US,1696295603
106,port hope,43.9408,-82.7127,20.98,88,0,0.0,US,1696295710
107,sangueya,10.7,-14.3667,25.44,93,100,1.38,GN,1696295710
108,leer,53.2316,7.461,17.74,96,100,4.5,DE,1696295710
109,san antonio de pale,-1.4014,5.6325,25.4,84,100,5.25,GQ,1696295610
110,ust-nera,64.5667,143.2,1.79,68,29,1.34,RU,1696295559
111,chibougamau,49.9168,-74.3659,16.79,94,100,3.6,CA,1696295710
112,vorkuta,67.5,64.0,1.11,82,100,7.91,RU,1696295710
113,palikir - national government center,6.9248,158.1611,31.41,70,75,2.06,FM,1696295573
114,sigli,5.3848,95.9609,26.83,77,100,2.36,ID,1696295710
115,namibe,-15.1961,12.1522,17.93,89,27,1.81,AO,1696295564
116,lebu,-37.6167,-73.65,9.68,85,97,3.99,CL,1696295573
117,guiratinga,-16.3494,-53.7583,26.65,56,37,0.94,BR,1696295710
118,island harbour,50.724,-1.2758,15.52,87,100,1.79,GB,1696295602
119,saint-georges,12.0564,-61.7485,28.64,77,100,5.15,GD,1696295710
120,hargeysa,9.56,44.065,21.35,66,40,4.05,SO,1696295710
121,utrik,11.2278,169.8474,28.76,78,30,6.4,MH,1696295710
122,vila franca do campo,37.7167,-25.4333,20.23,99,29,4.66,PT,1696295592
123,sason,38.3364,41.413,16.28,75,100,1.22,TR,1696295710
124,lethem,3.3803,-59.7968,30.4,34,100,2.5,GY,1696295711
125,san julian,21.0167,-102.1667,22.12,36,100,1.91,MX,1696295711
126,sogndal,61.2283,7.1003,9.21,93,100,0.0,NO,1696295711
127,carnarvon,-24.8667,113.6333,17.82,50,0,11.55,AU,1696295564
128,enewetak,11.3474,162.3373,28.49,78,100,5.07,MH,1696295562
129,kaesong,37.9708,126.5544,18.31,51,100,0.85,KP,1696295711
130,invercargill,-46.4,168.35,13.9,53,7,3.58,NZ,1696295385
131,vilyuchinsk,52.9306,158.4028,8.85,81,100,3.76,RU,1696295569
132,ziro,27.6333,93.8333,13.41,96,96,0.78,IN,1696295711
133,rocky mountain house,52.3668,-114.9188,11.06,71,88,1.54,CA,1696295711
134,kingston,17.997,-76.7936,27.53,94,40,1.03,JM,1696295035
135,putian,25.4394,119.0103,27.35,59,90,2.22,CN,1696295711
136,le port,-20.9373,55.2919,22.0,85,10,1.11,RE,1696295711
137,manggar,-2.8833,108.2667,28.5,69,97,6.37,ID,1696295711
138,al balyana,26.2357,32.0035,25.12,40,100,4.03,EG,1696295711
139,buala,-8.145,159.5921,29.29,76,98,4.1,SB,1696295711
140,kawalu,-7.3817,108.2082,24.86,73,100,1.61,ID,1696295711
141,puerto aysen,-45.4,-72.7,3.29,99,98,1.34,CL,1696295711
142,podporozh'ye,60.9112,34.1706,6.7,96,99,2.35,RU,1696295712
143,geraldton,-28.7667,114.6,19.23,42,75,7.2,AU,1696295560
144,cannonvale,-20.2833,148.7,24.66,71,23,5.46,AU,1696295712
145,vadso,70.0744,29.7487,0.49,100,40,2.57,NO,1696295565
146,tazovsky,67.4667,78.7,7.45,94,99,6.87,RU,1696295558
147,flying fish cove,-10.4217,105.6791,24.82,73,45,5.66,CX,1696295612
148,anshan,41.1236,122.99,21.69,46,98,6.87,CN,1696295712
149,ancud,-41.8697,-73.8203,6.82,71,99,0.78,CL,1696295573
150,papatowai,-46.5619,169.4708,12.6,42,5,2.74,NZ,1696295556
151,encruzilhada do sul,-30.5439,-52.5219,7.62,94,0,2.57,BR,1696295489
152,shindand,33.3029,62.1474,19.05,21,0,1.69,AF,1696295712
153,zaragoza,41.6561,-0.8773,21.68,73,0,3.09,ES,1696295643
154,torzhok,57.0436,34.9622,6.43,86,26,2.01,RU,1696295712
155,coahuayana de hidalgo,18.7,-103.6583,27.45,90,100,1.12,MX,1696295565
156,hwange,-18.3693,26.5019,19.01,64,0,2.94,ZW,1696295712
157,assen,52.9967,6.5625,18.25,89,100,2.57,NL,1696295712
158,hawaiian paradise park,19.5933,-154.9731,26.04,81,100,3.09,US,1696295574
159,ketchikan,55.3422,-131.6461,12.26,94,100,6.17,US,1696295566
160,daru,-9.0763,143.2092,27.34,74,68,5.22,PG,1696295580
161,goundam,16.4145,-3.6708,34.89,25,66,1.46,ML,1696295712
162,shenjiamen,29.9576,122.298,24.69,64,18,6.48,CN,1696295712
163,usogorsk,63.4106,48.6872,3.7,90,100,1.78,RU,1696295712
164,afaahiti,-17.75,-149.2833,25.93,86,61,6.53,PF,1696295566
165,pisco,-13.7,-76.2167,18.34,88,0,7.2,PE,1696295602
166,st. john's,47.5649,-52.7093,9.94,94,75,3.09,CA,1696295374
167,nova olinda do norte,-3.8881,-59.0942,30.82,39,100,1.27,BR,1696295609
168,hobyo,5.3505,48.5268,25.54,89,3,7.15,SO,1696295573
169,arkhangel'sk,64.5401,40.5433,3.4,84,100,2.63,RU,1696295565
170,korsakov,46.6328,142.7813,12.91,84,100,5.81,RU,1696295459
171,pushkinskiye gory,57.0209,28.9103,10.86,78,100,3.6,RU,1696295713
172,nuku'alofa,-21.1333,-175.2,23.19,64,75,7.2,TO,1696295713
173,fale old settlement,-9.3852,-171.2468,28.48,73,100,5.77,TK,1696295560
174,saipan,15.1355,145.701,31.39,74,40,7.2,MP,1696295570
175,conduaga,8.862,117.4893,28.66,77,100,3.43,PH,1696295613
176,hammerfest,70.6634,23.6821,0.25,86,75,1.54,NO,1696295604
177,pacific grove,36.6177,-121.9166,19.1,81,0,1.54,US,1696295713
178,trashi yangtse,27.6116,91.498,19.39,87,46,0.89,BT,1696295713
179,kalmunai,7.4167,81.8167,25.39,86,26,6.13,LK,1696295573
180,masterton,-40.9597,175.6575,9.38,58,90,5.74,NZ,1696295713
181,wulingyuan,29.3494,110.5441,16.32,98,100,1.46,CN,1696295713
182,port lincoln,-34.7333,135.8667,14.94,58,75,8.51,AU,1696295390
183,kamakwie,9.5,-12.2333,23.52,97,100,1.08,SL,1696295713
184,ribeira brava,32.65,-17.0667,23.35,74,10,2.31,PT,1696295611
185,kinablangan,7.6947,126.5503,29.09,73,74,1.6,PH,1696295713
186,horta,38.5333,-28.6333,17.23,79,0,4.47,PT,1696295568
187,laguna,38.421,-121.4238,26.17,30,0,0.45,US,1696295713
188,presidente medici,-11.1753,-61.9014,29.37,40,13,1.82,BR,1696295713
189,lesogorsk,56.0458,99.5136,0.52,98,99,1.79,RU,1696295714
190,wailua homesteads,22.0669,-159.378,28.24,77,0,4.63,US,1696295599
191,fedorovskiy,45.0972,40.9517,16.34,59,90,1.87,RU,1696295714
192,tateyama,34.9833,139.8667,23.75,56,97,3.44,JP,1696295714
193,hithadhoo,-0.6,73.0833,27.7,74,100,5.62,MV,1696295558
194,hays,30.0502,-98.0336,30.37,50,28,1.34,US,1696295714
195,superior,46.7208,-92.1041,24.26,81,0,2.57,US,1696295714
196,sidney,-33.8679,151.2073,35.43,24,0,8.23,AU,1696295635
197,badger,64.8,-147.5333,5.2,70,75,5.66,US,1696295566
198,yuzhno-kurilsk,44.0306,145.8556,14.65,74,40,8.31,RU,1696295575
199,santa cruz,-17.8,-63.1667,28.7,65,53,5.14,BO,1696295617
200,tabora,-5.0167,32.8,21.04,37,36,4.58,TZ,1696295714
201,altai,46.3722,96.2583,1.73,66,3,0.68,MN,1696295714
202,thompson,55.7435,-97.8558,6.09,93,100,1.54,CA,1696295560
203,klyuchi,52.2667,79.1667,3.23,56,15,3.48,RU,1696295573
204,rabo de peixe,37.8,-25.5833,19.73,99,20,5.66,PT,1696295601
205,safi,32.1667,-8.8333,22.35,40,100,1.82,MA,1696295714
206,margaret river,-33.95,115.0667,13.93,65,100,4.93,AU,1696295561
207,aasiaat,68.7098,-52.8699,-7.97,78,3,4.21,GL,1696295565
208,ocean city,39.2776,-74.5746,18.32,84,11,2.75,US,1696295714
209,"laikit, laikit ii (dimembe)",1.4792,124.9735,31.47,52,20,1.54,ID,1696295714
210,upington,-28.4478,21.2561,20.21,24,0,2.06,ZA,1696295715
211,weno,7.4515,151.8468,30.97,74,100,1.54,FM,1696295571
212,ulladulla,-35.35,150.4667,32.09,30,93,4.52,AU,1696295715
213,kyren,51.6828,102.1408,3.86,79,90,0.89,RU,1696295715
214,mugia,43.1041,-9.2179,18.28,84,100,4.14,ES,1696295601
215,cidade velha,14.9167,-23.6167,26.26,83,20,1.54,CV,1696295715
216,deqen,29.9618,90.7188,9.82,79,83,1.79,CN,1696295715
217,sumenep,-7.0167,113.8667,28.63,62,56,3.47,ID,1696295715
218,tsagan aman,47.5639,46.7218,15.78,51,100,1.63,RU,1696295715
219,richards bay,-28.783,32.0377,17.46,63,0,7.49,ZA,1696295715
220,ishikawa,26.4233,127.8214,31.18,84,75,3.6,JP,1696295715
221,rosario do sul,-30.2583,-54.9142,12.0,89,6,4.13,BR,1696295715
222,puerto armuelles,8.2833,-82.8667,27.83,72,100,0.45,PA,1696295569
223,salida,37.7058,-121.0849,26.19,35,0,4.63,US,1696295648
224,tazacorte,28.629,-17.9293,23.54,83,0,4.63,ES,1696295576
225,kamyzyak,46.11,48.0736,18.88,87,0,1.0,RU,1696295715
226,am timan,11.0297,20.2827,22.01,87,100,2.72,TD,1696295716
227,monroeville,40.4212,-79.7881,21.94,76,0,1.01,US,1696295506
228,howrah,22.5892,88.3103,27.0,94,40,2.57,IN,1696295560
229,yen vinh,18.6667,105.6667,26.6,84,32,1.49,VN,1696295716
230,porbandar,21.6422,69.6093,25.62,74,7,2.58,IN,1696295716
231,greymouth,-42.4667,171.2,14.22,37,0,1.82,NZ,1696295716
232,greenville,35.6127,-77.3663,20.97,79,0,0.0,US,1696295613
233,pudozh,61.8099,36.5345,6.08,82,100,1.34,RU,1696295716
234,tolanaro,-25.0319,46.9987,17.89,71,90,4.28,MG,1696295570
235,angaur state,6.906,134.13,28.75,71,42,2.35,PW,1696295716
236,hotan,37.0997,79.9269,17.57,24,90,1.34,CN,1696295716
237,kuta,-8.7233,115.1723,27.97,83,40,2.24,ID,1696295716
238,al mawsil al jadidah,36.3346,43.0978,24.56,43,94,0.36,IQ,1696295716
239,lompoc,34.6391,-120.4579,21.55,80,75,9.39,US,1696295517
240,hebi,35.8992,114.1925,19.22,67,0,0.42,CN,1696295716
241,bumba,2.1833,22.4667,21.78,97,100,0.76,CD,1696295716
242,bandrele,-12.9067,45.1914,25.86,83,20,4.12,YT,1696295716
243,khanty-mansiysk,61.0042,69.0019,9.06,87,0,3.13,RU,1696295716
244,baiyin,36.5583,104.2081,13.8,62,46,1.79,CN,1696295717
245,uturoa,-16.7333,-151.4333,26.06,80,1,7.05,PF,1696295569
246,kapuskasing,49.4169,-82.4331,19.13,76,88,3.21,CA,1696295412
247,bien hoa,10.95,106.8167,25.99,89,100,2.09,VN,1696295503
248,pizarro,4.9533,-77.366,25.51,90,100,1.68,CO,1696295717
249,margate,51.3813,1.3862,18.28,79,100,3.13,GB,1696295717
250,kourou,5.1552,-52.6478,27.03,81,43,4.78,GF,1696295717
251,nagqu,31.5,92.0,4.0,81,14,1.87,CN,1696295611
252,ponta pora,-22.5361,-55.7256,25.54,56,69,2.78,BR,1696295717
253,dobresti,46.85,22.3,11.39,62,19,1.94,RO,1696295717
254,hermanus,-34.4187,19.2345,14.67,87,0,2.6,ZA,1696295560
255,altamira,-3.2033,-52.2064,26.64,67,54,1.91,BR,1696295717
256,mount gambier,-37.8333,140.7667,15.97,52,60,5.74,AU,1696295573
257,barra de santo antonio,-9.4047,-35.5072,21.6,81,2,3.73,BR,1696295478
258,yokadouma,3.5167,15.05,21.45,98,100,0.78,CM,1696295717
259,karkira,36.9292,6.5856,21.37,69,0,2.11,DZ,1696295717
260,stanley,54.868,-1.6985,9.33,93,20,3.09,GB,1696295557
261,newman,37.3138,-121.0208,25.19,36,9,1.79,US,1696295717
262,balaklava,44.5,33.6,14.44,44,0,4.74,UA,1696295717
263,suva,-18.1416,178.4415,25.71,69,75,6.17,FJ,1696295363
264,rujewa,-8.7,34.3833,20.64,46,76,3.75,TZ,1696295718
265,junin de los andes,-39.9504,-71.0694,6.53,77,91,3.13,AR,1696295718
266,gao,16.6362,1.637,31.97,29,62,2.86,ML,1696295718
267,roccella ionica,38.322,16.4009,21.27,59,0,2.15,IT,1696295718
268,sheksna,59.21,38.5107,7.18,86,100,0.98,RU,1696295718
269,yinchuan,38.4681,106.2731,17.48,54,100,0.31,CN,1696295687
270,yeniseysk,58.4497,92.1703,3.86,58,100,4.47,RU,1696295718
271,arkalyk,50.2486,66.9114,7.8,63,0,3.43,KZ,1696295718
272,priargunsk,50.3691,119.1012,8.77,80,100,1.72,RU,1696295718
273,kuanda,56.3161,116.0806,-0.09,65,91,1.29,RU,1696295718
274,chonchi,-42.6128,-73.8092,7.56,94,98,0.41,CL,1696295718
275,hanko,59.8333,22.95,14.35,88,100,9.39,FI,1696295718
276,port sudan,19.6175,37.2164,28.1,81,28,3.61,SD,1696295718
277,kotlas,61.2611,46.6556,7.25,91,39,2.24,RU,1696295718
278,chapada dos guimaraes,-15.4606,-55.7497,27.81,47,32,2.1,BR,1696295718
279,strelka,58.0728,93.0344,4.48,96,100,2.52,RU,1696295718
280,amble,55.3333,-1.5833,11.08,87,20,3.6,GB,1696295719
281,nar'yan-mar,67.6713,53.087,3.95,78,77,9.39,RU,1696295574
282,selfoss,63.9331,-20.9971,6.69,78,69,4.4,IS,1696295719
283,mandalgovi,45.7625,106.2708,3.07,38,0,5.35,MN,1696295719
284,sal rei,16.1833,-22.9167,26.03,83,95,4.17,CV,1696295719
285,al ghayzah,16.2079,52.176,25.2,81,0,1.66,YE,1696295719
286,puerto santa,-8.9906,-78.6456,18.73,89,99,4.27,PE,1696295719
287,san carlos de bariloche,-41.1456,-71.3082,2.79,93,75,2.31,AR,1696295425
288,korla,41.7597,86.1469,17.68,32,100,3.35,CN,1696295719
289,tirupparangunram,9.8667,78.0667,25.93,74,13,0.6,IN,1696295719
290,amos,48.5669,-78.1162,21.03,74,50,4.54,CA,1696295719
291,kongolo,-5.3833,27.0,24.06,65,100,0.28,CD,1696295719
292,smithers,54.7804,-127.1743,10.18,81,40,2.06,CA,1696295575
293,zhengzhou,34.7578,113.6486,19.27,66,48,0.9,CN,1696295719
294,la passe,45.5549,-0.8967,20.13,87,42,4.38,FR,1696295563
295,lonavla,18.75,73.4167,20.24,92,100,0.8,IN,1696295719
296,arbroath,56.5632,-2.5874,10.99,90,3,4.63,GB,1696295720
297,morki,56.4303,48.9947,10.28,94,100,0.8,RU,1696295720
298,arauquita,7.0292,-71.4281,25.51,90,100,0.92,CO,1696295720
299,aitape,-3.1374,142.3475,25.83,88,100,1.71,PG,1696295720
300,manado,1.487,124.8455,32.43,55,20,2.57,ID,1696295469
301,al muwayh,22.4333,41.7583,24.27,22,0,2.69,SA,1696295720
302,port augusta,-32.5,137.7667,21.46,26,100,5.52,AU,1696295720
303,tomatlan,19.9333,-105.25,27.1,89,100,1.9,MX,1696295720
304,betio village,1.358,172.9211,32.02,73,9,4.07,KI,1696295720
305,hell-ville,-13.4,48.2667,25.26,78,59,1.35,MG,1696295720
306,kolwezi,-10.7148,25.4667,19.09,39,30,3.43,CD,1696295572
307,bodaybo,57.8506,114.1933,0.93,80,100,1.57,RU,1696295452
308,olyokminsk,60.3736,120.4264,-0.01,71,99,0.89,RU,1696295613
309,tupiza,-21.45,-65.7167,16.1,28,80,1.37,BO,1696295720
310,hailar,49.2,119.7,10.57,60,100,5.42,CN,1696295559
311,parsabad,39.6482,47.9174,19.05,72,9,1.33,IR,1696295720
312,emerald,-23.5333,148.1667,26.86,39,0,7.09,AU,1696295720
313,madalena,41.2162,-8.3345,19.14,92,64,0.97,PT,1696295720
314,katsuura,35.1333,140.3,24.17,54,98,4.34,JP,1696295721
315,evanston,42.0411,-87.6901,25.06,65,75,3.6,US,1696295510
316,kodiak,57.79,-152.4072,8.73,46,0,8.23,US,1696295565
317,ondjiva,-17.0667,15.7333,24.91,31,44,3.24,AO,1696295721
318,altos del rosario,8.7944,-74.1658,25.36,97,100,1.31,CO,1696295721
319,iskateley,67.6803,53.1512,3.9,78,76,9.39,RU,1696295578
320,kill devil hills,36.0307,-75.676,21.66,88,0,4.63,US,1696295490
321,acapulco de juarez,16.8634,-99.8901,29.9,74,100,1.54,MX,1696295425
322,prado,-17.3411,-39.2208,24.25,94,100,4.38,BR,1696295721
323,jindabyne,-36.4167,148.6333,20.76,42,53,7.27,AU,1696295721
324,nagar karnul,16.4821,78.3247,22.96,92,100,4.07,IN,1696295721
325,vershino-darasunskiy,52.35,115.5167,2.77,53,14,2.69,RU,1696295721
326,tutoia,-2.7619,-42.2744,26.31,87,59,5.39,BR,1696295721
327,poronaysk,49.2167,143.1167,10.72,90,100,9.55,RU,1696295358
328,sevlievo,43.0258,25.1136,11.19,60,9,1.62,BG,1696295721
329,lerwick,60.1545,-1.1494,12.0,83,4,8.89,GB,1696295721
330,fort bragg,35.139,-79.006,21.62,76,0,2.57,US,1696295477
331,nikolayevsk-on-amure,53.1406,140.73,7.92,97,100,2.32,RU,1696295464
332,nago,26.5881,127.9761,31.24,88,100,4.55,JP,1696295722
333,saint-leu,-21.15,55.2833,21.48,85,4,0.91,RE,1696295722
334,aripuana,-9.1667,-60.6333,28.82,40,63,0.59,BR,1696295722
335,'alaqahdari dishu,30.4374,63.313,21.08,16,0,0.77,AF,1696295722
336,l'isle-jourdain,43.6144,1.0817,20.96,95,57,3.08,FR,1696295722
337,kruisfontein,-34.0033,24.7314,18.41,36,0,3.32,ZA,1696295722
338,tarawa,1.419,172.984,32.05,70,40,3.09,KI,1696295722
339,okha,53.5739,142.9478,8.85,85,100,8.38,RU,1696295722
340,dhuusamarreeb,5.535,46.3861,24.84,73,4,6.87,SO,1696295722
341,sorong,-0.8833,131.25,25.15,90,100,3.03,ID,1696295576
342,hassi messaoud,31.6804,6.0729,22.41,50,0,4.83,DZ,1696295411
343,touros,-5.1989,-35.4608,25.11,83,15,5.81,BR,1696295722
344,tayshet,55.9342,98.0044,2.0,97,100,2.98,RU,1696295472
345,la ronge,55.1001,-105.2842,7.14,93,100,3.09,CA,1696295722
346,qaqortoq,60.7167,-46.0333,3.51,76,100,1.42,GL,1696295563
347,punta arenas,-53.15,-70.9167,6.06,75,0,5.14,CL,1696295560
348,muang xay,20.7,101.9833,24.22,87,27,0.16,LA,1696295723
349,slonim,53.0867,25.3219,11.98,74,77,3.34,BY,1696295723
350,kapa'a,22.0752,-159.319,28.99,77,0,4.63,US,1696295576
351,saint-paul,-21.0096,55.2707,22.06,85,6,1.15,RE,1696295723
352,sao jose da coroa grande,-8.8978,-35.1478,24.14,79,15,3.16,BR,1696295434
353,sainyabuli,19.25,101.75,23.23,95,36,0.35,LA,1696295723
354,thinadhoo,0.5333,72.9333,27.74,75,43,5.57,MV,1696295723
355,bamboo flat,11.7,92.7167,25.05,94,100,1.54,IN,1696295575
356,blackwater,-23.5833,148.8833,27.05,59,1,6.35,AU,1696295723
357,obudu,6.6674,9.1716,22.76,97,100,0.52,NG,1696295723
358,roma,43.2128,-75.4557,17.63,91,0,0.0,US,1696295572
359,coquimbo,-29.9533,-71.3436,12.84,73,0,0.84,CL,1696295572
360,eyl,7.9803,49.8164,25.7,84,27,4.1,SO,1696295723
361,arifwala,30.294,73.0735,22.7,26,0,1.84,PK,1696295723
362,tenno,39.9,139.9667,21.56,49,85,9.12,JP,1696295723
363,taro,-8.3862,115.28,24.0,63,87,1.97,ID,1696295723
364,mejit,10.2753,170.8646,28.6,77,12,6.36,MH,1696295611
365,garissa,-0.4536,39.6401,23.67,81,30,6.55,KE,1696295724
366,kiunga,-6.1219,141.2906,28.9,75,89,0.6,PG,1696295601
367,taulaga,-11.0553,-171.0883,27.94,76,41,6.71,AS,1696295724
368,lashio,22.9333,97.75,20.98,98,81,0.23,MM,1696295724
369,miquelon,47.0975,-56.3814,13.0,75,15,4.35,PM,1696295724
370,nizhnesortymskiy,62.4397,71.7603,8.35,91,92,7.39,RU,1696295724
371,noshiro,40.2039,140.0242,20.46,49,26,8.28,JP,1696295724
372,meizhou,24.2977,116.1072,27.72,81,39,0.93,CN,1696295724
373,bani suwayf,29.0744,31.0979,22.87,54,87,3.95,EG,1696295724
374,bonthe,7.5264,-12.505,25.28,90,100,3.14,SL,1696295724
375,urangan,-25.3,152.9,22.91,68,84,5.31,AU,1696295613
376,inongo,-1.95,18.2667,21.52,96,100,1.66,CD,1696295724
377,talagang,32.9297,72.4158,23.06,31,0,1.49,PK,1696295724
378,nogliki,51.8333,143.1667,10.75,96,100,11.18,RU,1696295464
379,igarka,67.4667,86.5833,1.67,100,100,9.24,RU,1696295725
380,savanna-la-mar,18.219,-78.1332,29.97,87,39,2.13,JM,1696295580
381,lander,42.833,-108.7307,13.22,59,75,8.23,US,1696295725
382,al bawiti,28.3492,28.8659,21.01,58,13,3.56,EG,1696295725
383,azare,11.6765,10.1948,24.17,65,94,2.71,NG,1696295725
384,kolonia,50.9333,6.95,21.9,77,0,2.06,DE,1696295609
385,tralee,52.2704,-9.7026,11.19,89,100,4.56,IE,1696295567
386,vila velha,-20.3297,-40.2925,23.97,90,75,1.54,BR,1696295578
387,loa janan,-0.583,117.095,30.58,61,78,2.17,ID,1696295725
388,singkil,-7.9855,111.4161,27.88,60,98,2.84,ID,1696295725
389,acarau,-2.8856,-40.12,26.01,85,9,6.48,BR,1696295575
390,sao paulo de olivenca,-3.3783,-68.8725,27.49,62,100,0.99,BR,1696295725
391,yamada,39.4667,141.95,20.43,50,100,2.19,JP,1696295725
392,porto murtinho,-21.6989,-57.8825,33.11,33,99,1.31,BR,1696295579
393,kavaratti,10.5669,72.642,27.69,74,100,2.8,IN,1696295561
394,okhotsk,59.3833,143.3,6.18,77,6,4.67,RU,1696295605
395,remire-montjoly,4.9167,-52.2667,27.02,83,0,1.54,GF,1696295579
396,watsa,3.0372,29.5355,17.95,98,100,0.61,CD,1696295726
397,nizhneangarsk,55.7833,109.55,2.78,52,94,1.79,RU,1696295726
398,kashmar,35.2383,58.4656,20.25,19,16,2.8,IR,1696295726
399,rivera,-30.9053,-55.5508,10.89,92,95,3.22,UY,1696295507
400,warman,52.3168,-106.5679,9.95,93,100,1.54,CA,1696295726
401,kupwara,34.0306,74.2642,-0.13,69,0,1.74,IN,1696295726
402,anloga,5.7947,0.8973,26.41,85,6,4.87,GH,1696295726
403,celestun,20.8667,-90.4,28.48,79,100,5.49,MX,1696295726
404,belle chasse,29.8549,-89.9906,26.11,72,20,4.12,US,1696295726
405,livingston,55.9029,-3.5226,12.14,87,40,4.12,GB,1696295726
406,san juan del sur,11.2529,-85.8705,27.79,81,100,3.13,NI,1696295726
407,jati,24.3539,68.2671,25.17,77,0,3.85,PK,1696295726
408,aswan,24.0934,32.907,27.61,29,0,5.14,EG,1696295726
409,annaba,36.9,7.7667,17.98,88,20,0.0,DZ,1696295727
410,faya-largeau,17.9257,19.1043,27.27,36,14,14.81,TD,1696295566
411,aioun,16.6614,-9.6149,34.07,14,100,3.66,MR,1696295613
412,curup,-3.4667,102.5333,22.78,77,100,1.15,ID,1696295727
413,fray luis a. beltran,-32.7912,-60.7282,18.88,65,100,4.27,AR,1696295460
414,pontes e lacerda,-15.2261,-59.3353,29.0,46,7,0.96,BR,1696295727
415,asau,46.4333,26.4,5.71,74,8,1.95,RO,1696295727
416,atherton,53.5237,-2.4935,11.9,96,65,1.76,GB,1696295727
417,muynoq,43.7683,59.0214,13.62,71,15,3.23,UZ,1696295727
418,alo,7.4178,6.7371,24.17,95,100,0.83,NG,1696295572
419,papao,-17.75,-149.55,26.82,82,0,6.97,PF,1696295727
420,mochudi,-24.4167,26.15,14.32,66,0,4.5,BW,1696295727
421,hasaki,35.7333,140.8333,25.16,52,30,4.13,JP,1696295278
422,manaure,11.7751,-72.4445,28.82,83,82,4.76,CO,1696295727
423,mogocha,53.7333,119.7667,4.3,95,96,1.34,RU,1696295462
424,sao miguel do guama,-1.6267,-47.4833,25.39,81,14,2.24,BR,1696295727
425,mhamid,29.82,-5.72,25.51,24,100,2.97,MA,1696295727
426,ierapetra,35.01,25.7353,23.41,60,0,8.05,GR,1696295728
427,basoko,1.2391,23.616,22.73,97,100,1.29,CD,1696295728
428,fuqing,25.725,119.3794,26.87,67,21,4.11,CN,1696295703
429,sanliurfa,37.2128,38.7817,15.93,57,70,1.36,TR,1696295728
430,contramaestre,20.2978,-76.2414,25.16,91,100,0.2,CU,1696295728
431,piti village,13.4626,144.6933,31.49,79,20,5.66,GU,1696295728
432,khuzdar,27.7384,66.6434,19.51,16,0,2.81,PK,1696295573
433,haiku-pauwela,20.9219,-156.3051,31.01,51,40,5.14,US,1696295608
434,sola,-13.8833,167.55,24.34,92,100,10.46,VU,1696295728
435,bac lieu,9.285,105.7244,26.8,85,95,5.13,VN,1696295728
436,nuuk,64.1835,-51.7216,4.34,75,100,1.03,GL,1696295311
437,nanga eboko,4.6833,12.3667,21.0,100,100,1.06,CM,1696295728
438,rabaul,-4.1967,152.1721,28.31,77,78,2.6,PG,1696295728
439,nyurba,63.2842,118.3319,-1.09,75,88,2.24,RU,1696295728
440,camana,-16.6228,-72.7111,17.88,88,36,2.96,PE,1696295728
441,olinda,-8.0089,-34.8553,25.85,73,40,4.12,BR,1696295565
442,carbondale,37.7273,-89.2168,21.7,84,0,1.54,US,1696295728
443,sarangani,5.4033,125.4636,28.2,74,59,2.19,PH,1696295729
444,kirensk,57.7853,108.1119,-1.1,94,93,2.24,RU,1696295572
445,abepura,-2.6333,140.5833,28.45,74,20,2.06,ID,1696295729
446,as sulayyil,20.4607,45.5779,25.14,15,0,1.67,SA,1696295606
447,queenstown,-31.8976,26.8753,17.34,39,0,2.59,ZA,1696295729
448,embi,48.8264,58.1442,11.53,54,97,2.61,KZ,1696295729
449,mount isa,-20.7333,139.5,32.87,18,0,5.66,AU,1696295609
450,hengchun,22.0042,120.7439,28.05,70,100,0.88,TW,1696295729
451,tanjung pandan,-2.75,107.65,28.92,64,100,4.7,ID,1696295729
452,steinbach,50.1667,8.5667,20.14,70,0,1.03,DE,1696295729
453,preobrazheniye,42.9019,133.9064,15.8,52,7,2.24,RU,1696295612
454,cockburn town,21.4612,-71.1419,28.64,75,14,6.36,TC,1696295729
455,shahabad,27.65,79.95,24.31,40,99,3.02,IN,1696295729
456,prince george,53.9166,-122.753,12.36,78,29,0.45,CA,1696295476
457,howard springs,-12.497,131.047,28.95,42,95,0.52,AU,1696295566
458,cizre,37.3272,42.1903,17.56,82,40,3.6,TR,1696295729
459,guia lopes da laguna,-21.4578,-56.1142,30.5,41,99,1.8,BR,1696295730
460,eureka,40.8021,-124.1637,16.34,77,100,1.79,US,1696295730
461,simojovel de allende,17.2,-92.6333,20.0,99,99,0.16,MX,1696295730
462,sirjan,29.452,55.6814,18.46,29,0,0.59,IR,1696295730
463,whitehorse,60.7161,-135.0538,10.57,66,75,7.2,CA,1696295564
464,gaspe,48.8334,-64.4819,11.95,93,100,3.09,CA,1696295730
465,taoudenni,22.6783,-3.9836,33.67,17,1,8.09,ML,1696295607
466,sao felix do xingu,-6.6447,-51.995,27.34,38,10,1.34,BR,1696295471
467,arraial do cabo,-22.9661,-42.0278,20.75,87,100,1.35,BR,1696295564
468,kayangel,8.0823,134.7173,28.69,72,15,3.16,PW,1696295563
469,labytnangi,66.6572,66.4183,5.59,68,11,7.01,RU,1696295569
470,flin flon,54.7682,-101.865,6.06,96,100,2.01,CA,1696295561
471,shiyan,32.6475,110.7781,17.54,83,65,1.02,CN,1696295730
472,puerto baquerizo moreno,-0.9,-89.6,22.7,91,59,4.55,EC,1696295602
473,lagos,6.5833,3.75,24.84,93,99,1.51,NG,1696295339
474,champerico,14.3,-91.9167,28.5,77,100,1.85,GT,1696295730
475,luganville,-15.5333,167.1667,25.97,77,94,7.33,VU,1696295730
476,morden,49.1919,-98.1014,16.16,94,59,0.51,CA,1696295730
477,xining,36.6167,101.7667,11.18,85,100,0.87,CN,1696295731
478,saidpur,25.7777,88.8917,25.67,93,33,2.99,BD,1696295731
479,tura,25.5198,90.2201,23.49,97,35,1.75,IN,1696295573
480,achinsk,56.2694,90.4993,4.83,54,46,4.47,RU,1696295711
481,panacan,9.2463,118.4082,28.29,75,100,0.76,PH,1696295731
482,manokwari,-0.8667,134.0833,26.89,80,96,1.46,ID,1696295579
483,kununurra,-15.7667,128.7333,32.99,52,5,2.57,AU,1696295338
484,tobruk,32.0836,23.9764,23.54,62,0,4.3,LY,1696295731
485,quellon,-43.1167,-73.6167,6.73,84,100,1.77,CL,1696295570
486,belyy yar,53.6039,91.3903,-1.06,100,12,1.0,RU,1696295612
487,xai-xai,-25.0519,33.6442,15.95,73,0,1.88,MZ,1696295731
488,tiquipaya,-17.3382,-66.2189,21.4,43,40,2.57,BO,1696295731
489,polyarnyy,69.1989,33.4478,1.92,75,100,3.26,RU,1696295609
490,ballina,-28.8667,153.5667,27.66,50,0,7.25,AU,1696295731
491,puerto san jose,13.9256,-90.8244,27.38,81,100,1.0,GT,1696295731
492,ust'-ilimsk,58.0006,102.6619,-0.87,94,100,3.13,RU,1696295731
493,palangkaraya,-2.2,113.8333,30.24,55,76,1.11,ID,1696295731
494,shakawe,-18.3667,21.85,24.35,35,23,3.13,BW,1696295731
495,minot air force base,48.4209,-101.3391,17.1,88,100,2.57,US,1696295731
496,konosha,60.9736,40.257,3.48,94,7,0.61,RU,1696295732
497,empalme,27.9667,-110.8167,32.42,55,40,6.69,MX,1696295732
498,lingyuan,41.24,119.4011,19.25,37,90,5.33,CN,1696295732
499,beau vallon,-20.4189,57.6953,21.23,94,20,1.54,MU,1696295732
500,grand-bassam,5.2118,-3.7388,26.98,91,18,2.74,CI,1696295732
501,alvorada,-12.48,-49.1247,32.06,23,9,2.06,BR,1696295660
502,uyskoye,54.3775,60.0047,9.76,75,100,2.08,RU,1696295732
503,port hedland,-20.3167,118.5667,31.03,20,60,8.23,AU,1696295732
504,tual,-5.6667,132.75,26.48,86,24,5.92,ID,1696295732
505,youghal,51.95,-7.8506,11.56,100,61,4.4,IE,1696295732
506,tinajo,29.0788,-13.7081,23.49,78,0,5.14,ES,1696295732
507,city of balikpapan,-1.242,116.8942,27.97,78,20,2.06,ID,1696295732
508,lazaro cardenas,17.9583,-102.2,27.54,86,100,0.81,MX,1696295692
509,miri,4.4148,114.0089,30.08,79,40,1.03,MY,1696295732
510,novosergiyevka,52.0934,53.6528,14.82,55,100,3.63,RU,1696295732
511,salinopolis,-0.6136,-47.3561,27.18,80,77,6.82,BR,1696295732
512,sosnovo-ozerskoye,52.5249,111.5418,1.54,52,21,7.61,RU,1696295733
513,nouadhibou,20.931,-17.0347,27.99,39,7,6.17,MR,1696295733
514,yanchep,-31.55,115.6833,16.74,52,53,5.35,AU,1696295733
515,tinghir,31.5157,-5.5343,22.65,31,99,0.29,MA,1696295733
516,carutapera,-1.195,-46.02,26.71,83,56,4.65,BR,1696295733
517,verkhnevilyuysk,63.4453,120.3167,-0.59,77,40,1.79,RU,1696295608
518,cheongsong gun,36.4335,129.057,19.16,57,100,1.72,KR,1696295733
519,myitkyina,25.3833,97.4,24.5,98,93,0.08,MM,1696295733
520,rio grande,-32.035,-52.0986,13.86,87,1,4.07,BR,1696295733
521,kerikeri,-35.2268,173.9474,17.64,44,0,2.8,NZ,1696295562
522,menongue,-14.6585,17.691,21.59,47,57,0.3,AO,1696295733
523,recani,31.2846,-4.2688,25.55,27,97,2.05,MA,1696295734
524,barcelos,41.5388,-8.6151,19.91,91,100,1.47,PT,1696295734
525,sheridan,44.8333,-106.9173,13.34,94,0,5.66,US,1696295734
526,klaksvik,62.2266,-6.589,10.51,88,82,4.35,FO,1696295734
527,sur,22.5667,59.5289,29.89,46,16,2.41,OM,1696295734
528,wynyard,-41.0,145.7167,15.56,81,100,5.47,AU,1696295574
529,varberg,57.1056,12.2508,14.57,86,100,2.86,SE,1696295735
530,kovdor,67.5662,30.4758,2.04,96,100,1.11,RU,1696295735
531,susurluk,39.9136,28.1578,18.88,83,0,2.34,TR,1696295735
532,rengo,-34.4167,-70.8667,12.54,84,74,1.0,CL,1696295735
533,fundacion,10.5207,-74.185,26.25,90,100,1.04,CO,1696295735
534,whangarei,-35.7317,174.3239,16.61,45,5,3.91,NZ,1696295735
535,sucre,-19.0333,-65.2627,17.94,57,4,2.92,BO,1696295735
536,fredericksburg,38.3032,-77.4605,21.29,88,0,0.0,US,1696295467
537,christchurch,-43.5333,172.6333,13.28,55,20,4.12,NZ,1696295703
538,vinton,37.281,-79.897,21.23,86,9,0.3,US,1696295736
539,eguilles,43.5687,5.3557,19.6,88,36,2.06,FR,1696295736
540,ocos,14.5094,-92.1933,27.1,75,100,0.53,GT,1696295736
541,aranyaprathet,13.6928,102.5013,24.11,97,100,0.83,TH,1696295736
542,solnechnyy,50.7214,136.6319,7.24,82,96,2.61,RU,1696295736
543,stornoway,58.2093,-6.3865,11.98,89,75,6.17,GB,1696295736
544,maintirano,-18.0667,44.0167,25.19,75,46,6.7,MG,1696295736
545,norilsk,69.3535,88.2027,0.79,94,100,7.0,RU,1696295736
546,happy valley-goose bay,53.3168,-60.3315,7.17,61,75,3.09,CA,1696295600
547,westport,41.1415,-73.3579,18.3,84,0,0.45,US,1696295571
548,concepcion,-36.827,-73.0498,11.89,82,75,1.54,CL,1696295736
549,meadow lakes,61.6247,-149.6011,8.08,87,100,3.6,US,1696295736
550,roxas,11.5853,122.7511,26.75,75,100,3.07,PH,1696295736
551,freetown,8.484,-13.2299,24.84,100,75,3.09,SL,1696295603
552,najran,17.4924,44.1277,19.36,20,0,0.66,SA,1696295570
553,vanimo,-2.6741,141.3028,27.25,76,100,3.82,PG,1696295737
554,sake,-1.5736,29.045,17.58,85,7,0.38,CD,1696295635
555,nyagan,62.1406,65.3936,10.23,79,11,3.22,RU,1696295737
556,shingu,33.7333,135.9833,23.74,42,17,1.7,JP,1696295737
557,yuxi,24.355,102.5422,19.66,91,72,1.31,CN,1696295737
558,batang,-6.4846,110.7083,28.86,58,100,2.95,ID,1696295737
559,saudarkrokur,65.7461,-19.6394,2.96,95,100,3.27,IS,1696295602
560,agaro,7.85,36.65,14.39,94,63,0.56,ET,1696295737
561,sisimiut,66.9395,-53.6735,1.05,63,8,2.93,GL,1696295606
562,whitecourt,54.1502,-115.6855,13.58,58,40,2.06,CA,1696295539
563,sibut,5.718,19.0739,21.49,95,87,0.89,CF,1696295737
564,west bay,19.3667,-81.4167,31.04,77,20,3.09,KY,1696295737
565,villa del totoral,-30.8167,-63.7167,18.44,45,0,1.57,AR,1696295529
566,samfya,-11.3649,29.5565,21.48,55,99,5.41,ZM,1696295737
567,balasore,21.4942,86.9317,25.88,84,100,2.06,IN,1696295737
568,santiago de cao,-7.9589,-79.2392,19.07,88,20,3.09,PE,1696295737
569,tsiombe,-25.3,45.4833,17.52,64,16,5.32,MG,1696295738
570,nadi,-17.8,177.4167,29.0,48,75,5.14,FJ,1696295738
571,brookings,44.3114,-96.7984,26.19,48,0,0.45,US,1696295739
572,prieska,-29.6641,22.7474,22.28,24,0,1.68,ZA,1696295739
573,egilsstadir,65.2653,-14.3948,4.95,93,100,5.14,IS,1696295605
574,dazhou,31.2159,107.5009,18.64,86,100,1.05,CN,1696295739
575,caico,-6.4583,-37.0978,26.6,61,9,6.37,BR,1696295572
576,cestos city,5.46,-9.5828,25.25,88,55,4.27,LR,1696295739
577,ornskoldsvik,63.2909,18.7153,1.53,100,9,1.54,SE,1696295739
578,oamaru,-45.0784,170.9801,11.23,48,0,4.9,NZ,1696295739
579,north bay,46.3168,-79.4663,20.53,87,20,4.63,CA,1696295692
580,idrinskoye,54.3708,92.1358,4.97,69,18,0.77,RU,1696295739
